$GPRMC,190540.437,A,4458.8147,N,01356.2307,E,0.12,0.00,230719,,,A*6A,28.31
$GPRMC,190542.000,A,4458.8165,N,01356.2307,E,0.09,0.00,230719,,,A*62,28.31
$GPRMC,190543.000,A,4458.8176,N,01356.2308,E,0.13,0.00,230719,,,A*65,28.31
$GPRMC,190544.000,A,4458.8168,N,01356.2300,E,0.10,0.00,230719,,,A*66,28.31
$GPRMC,190545.000,A,4458.8171,N,01356.2306,E,0.07,0.00,230719,,,A*6F,28.31
$GPRMC,190546.000,A,4458.8147,N,01356.2299,E,0.13,0.00,230719,,,A*6B,28.31
$GPRMC,190547.000,A,4458.8152,N,01356.2303,E,0.06,0.00,230719,,,A*68,28.31
$GPRMC,190548.000,A,4458.8158,N,01356.2308,E,0.10,0.00,230719,,,A*61,28.31
$GPRMC,190549.000,A,4458.8161,N,01356.2309,E,0.12,0.00,230719,,,A*69,28.31
$GPRMC,190550.000,A,4458.8163,N,01356.2310,E,0.22,0.00,230719,,,A*68,28.31
$GPRMC,190551.000,A,4458.8169,N,01356.2313,E,0.07,0.00,230719,,,A*67,28.31
$GPRMC,190552.000,A,4458.8161,N,01356.2311,E,0.07,0.00,230719,,,A*6E,28.31
$GPRMC,190553.000,A,4458.8164,N,01356.2313,E,0.19,0.00,230719,,,A*67,28.31
$GPRMC,190554.000,A,4458.8161,N,01356.2312,E,0.10,0.00,230719,,,A*6D,28.31
$GPRMC,190555.000,A,4458.8163,N,01356.2315,E,0.07,0.00,230719,,,A*6F,28.31
$GPRMC,190556.000,A,4458.8167,N,01356.2319,E,0.07,0.00,230719,,,A*64,28.31
$GPRMC,190557.000,A,4458.8166,N,01356.2321,E,0.03,0.00,230719,,,A*6B,28.31
$GPRMC,190558.000,A,4458.8169,N,01356.2325,E,0.11,0.00,230719,,,A*6C,28.31
$GPRMC,190559.000,A,4458.8177,N,01356.2330,E,0.22,0.00,230719,,,A*66,28.31
$GPRMC,190600.000,A,4458.8183,N,01356.2335,E,0.22,0.00,230719,,,A*67,28.31
$GPRMC,190601.000,A,4458.8215,N,01356.2290,E,0.27,0.00,230719,,,A*61,28.31
$GPRMC,190602.000,A,4458.8206,N,01356.2292,E,0.36,0.00,230719,,,A*62,28.31
$GPRMC,190603.000,A,4458.8193,N,01356.2286,E,0.31,0.00,230719,,,A*6E,28.31
$GPRMC,190604.000,A,4458.8182,N,01356.2281,E,0.16,0.00,230719,,,A*6B,28.31
$GPRMC,190605.000,A,4458.8182,N,01356.2281,E,0.08,0.00,230719,,,A*65,28.31
$GPRMC,190606.000,A,4458.8187,N,01356.2281,E,0.04,0.00,230719,,,A*6F,28.31
$GPRMC,190607.000,A,4458.8189,N,01356.2282,E,0.11,0.00,230719,,,A*67,28.31
$GPRMC,190608.000,A,4458.8187,N,01356.2280,E,0.17,0.00,230719,,,A*62,28.31
$GPRMC,190609.000,A,4458.8185,N,01356.2278,E,0.19,0.00,230719,,,A*68,28.31
$GPRMC,190610.000,A,4458.8186,N,01356.2278,E,0.19,0.00,230719,,,A*63,28.31
$GPRMC,190611.000,A,4458.8185,N,01356.2278,E,0.17,0.00,230719,,,A*6F,28.31
$GPRMC,190612.000,A,4458.8185,N,01356.2278,E,0.18,0.00,230719,,,A*63,28.31
$GPRMC,190613.000,A,4458.8185,N,01356.2277,E,0.22,0.00,230719,,,A*64,28.31
$GPRMC,190614.000,A,4458.8186,N,01356.2277,E,0.16,0.00,230719,,,A*67,28.31
$GPRMC,190615.000,A,4458.8188,N,01356.2276,E,0.13,0.00,230719,,,A*6C,28.31
$GPRMC,190616.000,A,4458.8189,N,01356.2276,E,0.15,0.00,230719,,,A*68,28.31
$GPRMC,190617.000,A,4458.8188,N,01356.2275,E,0.13,0.00,230719,,,A*6D,28.31
$GPRMC,190618.000,A,4458.8187,N,01356.2274,E,0.12,0.00,230719,,,A*6D,28.31
$GPRMC,190619.000,A,4458.8184,N,01356.2273,E,0.11,0.00,230719,,,A*6B,28.31
$GPRMC,190620.000,A,4458.8184,N,01356.2273,E,0.04,0.00,230719,,,A*65,28.31
$GPRMC,190621.000,A,4458.8184,N,01356.2273,E,0.04,0.00,230719,,,A*64,28.31
$GPRMC,190622.000,A,4458.8184,N,01356.2273,E,0.15,0.00,230719,,,A*67,28.31
$GPRMC,190623.000,A,4458.8184,N,01356.2272,E,0.15,0.00,230719,,,A*67,28.31
$GPRMC,190624.000,A,4458.8185,N,01356.2272,E,0.16,0.00,230719,,,A*62,28.31
$GPRMC,190625.000,A,4458.8185,N,01356.2272,E,0.11,0.00,230719,,,A*64,28.31
$GPRMC,190626.000,A,4458.8183,N,01356.2270,E,0.12,0.00,230719,,,A*60,28.31
$GPRMC,190627.000,A,4458.8183,N,01356.2269,E,0.11,0.00,230719,,,A*6A,28.31
$GPRMC,190628.000,A,4458.8181,N,01356.2268,E,0.18,0.00,230719,,,A*6F,28.31
$GPRMC,190629.000,A,4458.8181,N,01356.2267,E,0.21,0.00,230719,,,A*6B,28.31
$GPRMC,190630.000,A,4458.8181,N,01356.2267,E,0.18,0.00,230719,,,A*69,28.31
$GPRMC,190631.000,A,4458.8180,N,01356.2266,E,0.19,0.00,230719,,,A*69,28.31
$GPRMC,190632.000,A,4458.8179,N,01356.2267,E,0.17,0.00,230719,,,A*63,28.31
$GPRMC,190633.000,A,4458.8179,N,01356.2268,E,0.16,0.00,230719,,,A*6C,28.31
$GPRMC,190634.000,A,4458.8177,N,01356.2268,E,0.14,0.00,230719,,,A*67,28.31
$GPRMC,190635.000,A,4458.8176,N,01356.2267,E,0.12,0.00,230719,,,A*6E,28.31
$GPRMC,190636.000,A,4458.8175,N,01356.2267,E,0.12,0.00,230719,,,A*6E,28.31
$GPRMC,190637.000,A,4458.8174,N,01356.2267,E,0.11,0.00,230719,,,A*6D,28.31
$GPRMC,190638.000,A,4458.8173,N,01356.2267,E,0.10,0.00,230719,,,A*64,28.31
$GPRMC,190639.000,A,4458.8172,N,01356.2267,E,0.12,0.00,230719,,,A*66,28.31
$GPRMC,190640.000,A,4458.8172,N,01356.2268,E,0.13,0.00,230719,,,A*66,28.31
$GPRMC,190641.000,A,4458.8172,N,01356.2268,E,0.13,0.00,230719,,,A*67,28.31
$GPRMC,190642.000,A,4458.8171,N,01356.2269,E,0.13,0.00,230719,,,A*66,28.31
$GPRMC,190643.000,A,4458.8172,N,01356.2270,E,0.11,0.00,230719,,,A*6E,28.31
$GPRMC,190644.000,A,4458.8173,N,01356.2271,E,0.09,0.00,230719,,,A*60,28.31
$GPRMC,190645.000,A,4458.8173,N,01356.2272,E,0.08,0.00,230719,,,A*63,28.31
$GPRMC,190646.000,A,4458.8174,N,01356.2273,E,0.07,0.00,230719,,,A*69,28.31
$GPRMC,190647.000,A,4458.8175,N,01356.2274,E,0.06,0.00,230719,,,A*6F,28.31
$GPRMC,190648.000,A,4458.8177,N,01356.2275,E,0.08,0.00,230719,,,A*6D,28.31
$GPRMC,190649.000,A,4458.8177,N,01356.2275,E,0.08,0.00,230719,,,A*6C,28.31
$GPRMC,190650.000,A,4458.8177,N,01356.2275,E,0.06,0.00,230719,,,A*6A,28.31
$GPRMC,190651.000,A,4458.8177,N,01356.2275,E,0.06,0.00,230719,,,A*6B,28.31
$GPRMC,190652.000,A,4458.8177,N,01356.2275,E,0.09,0.00,230719,,,A*67,28.31
$GPRMC,190653.000,A,4458.8177,N,01356.2275,E,0.08,0.00,230719,,,A*67,28.31
$GPRMC,190654.000,A,4458.8176,N,01356.2274,E,0.08,0.00,230719,,,A*60,28.31
$GPRMC,190655.000,A,4458.8177,N,01356.2273,E,0.10,0.00,230719,,,A*6E,28.31
$GPRMC,190656.000,A,4458.8176,N,01356.2272,E,0.10,0.00,230719,,,A*6D,28.31
$GPRMC,190657.000,A,4458.8176,N,01356.2271,E,0.10,0.00,230719,,,A*6F,28.31
$GPRMC,190658.000,A,4458.8176,N,01356.2269,E,0.12,0.00,230719,,,A*6B,28.31
$GPRMC,190659.000,A,4458.8176,N,01356.2269,E,0.15,0.00,230719,,,A*6D,28.31
$GPRMC,190700.000,A,4458.8175,N,01356.2268,E,0.10,0.00,230719,,,A*67,28.31
$GPRMC,190701.000,A,4458.8175,N,01356.2268,E,0.15,0.00,230719,,,A*63,28.31
$GPRMC,190702.000,A,4458.8175,N,01356.2267,E,0.13,0.00,230719,,,A*69,28.31
$GPRMC,190703.000,A,4458.8175,N,01356.2266,E,0.13,0.00,230719,,,A*69,28.31
$GPRMC,190704.000,A,4458.8174,N,01356.2266,E,0.13,0.00,230719,,,A*6F,28.31
$GPRMC,190705.000,A,4458.8174,N,01356.2266,E,0.07,0.00,230719,,,A*6B,28.31
$GPRMC,190706.000,A,4458.8174,N,01356.2266,E,0.12,0.00,230719,,,A*6C,28.31
$GPRMC,190707.000,A,4458.8175,N,01356.2266,E,0.11,0.00,230719,,,A*6F,28.31
$GPRMC,190708.000,A,4458.8175,N,01356.2265,E,0.10,0.00,230719,,,A*62,27.99
$GPRMC,190709.000,A,4458.8175,N,01356.2265,E,0.09,0.00,230719,,,A*6B,27.99
$GPRMC,190710.000,A,4458.8176,N,01356.2264,E,0.12,0.00,230719,,,A*6B,27.99
$GPRMC,190711.000,A,4458.8176,N,01356.2264,E,0.11,0.00,230719,,,A*69,27.99
$GPRMC,190712.000,A,4458.8177,N,01356.2263,E,0.12,0.00,230719,,,A*6F,28.31
$GPRMC,190713.000,A,4458.8177,N,01356.2263,E,0.11,0.00,230719,,,D*68,27.99
$GPRMC,190714.000,A,4458.8178,N,01356.2263,E,0.09,0.00,230719,,,D*69,27.99
$GPRMC,190715.000,A,4458.8177,N,01356.2262,E,0.10,0.00,230719,,,D*6E,27.99
$GPRMC,190716.000,A,4458.8177,N,01356.2261,E,0.30,0.00,230719,,,D*6C,27.99
$GPRMC,190717.000,A,4458.8177,N,01356.2261,E,0.25,0.00,230719,,,D*69,28.31
$GPRMC,190718.000,A,4458.8177,N,01356.2260,E,0.09,0.00,230719,,,D*69,27.99
$GPRMC,190719.000,A,4458.8177,N,01356.2260,E,0.15,0.00,230719,,,D*65,27.99
$GPRMC,190720.000,A,4458.8177,N,01356.2258,E,0.15,0.00,230719,,,D*64,27.99
$GPRMC,190721.000,A,4458.8175,N,01356.2256,E,0.17,0.00,230719,,,D*6B,28.31
$GPRMC,190722.000,A,4458.8174,N,01356.2255,E,0.24,0.00,230719,,,D*6A,28.31
$GPRMC,190723.000,A,4458.8174,N,01356.2254,E,0.57,0.00,230719,,,D*6E,28.31
$GPRMC,190724.000,A,4458.8174,N,01356.2253,E,0.62,0.00,230719,,,D*68,27.99
$GPRMC,190725.000,A,4458.8173,N,01356.2251,E,0.70,0.00,230719,,,D*6F,27.99
$GPRMC,190726.000,A,4458.8171,N,01356.2249,E,0.43,0.00,230719,,,D*67,28.31
$GPRMC,190727.000,A,4458.8170,N,01356.2248,E,0.21,0.00,230719,,,D*62,27.99
$GPRMC,190728.000,A,4458.8170,N,01356.2247,E,0.15,0.00,230719,,,D*65,27.99
$GPRMC,190729.000,A,4458.8170,N,01356.2246,E,0.14,0.00,230719,,,D*64,27.99
$GPRMC,190730.000,A,4458.8171,N,01356.2245,E,0.11,0.00,230719,,,D*6B,27.99
$GPRMC,190731.000,A,4458.8171,N,01356.2244,E,0.13,0.00,230719,,,D*69,27.99
$GPRMC,190732.000,A,4458.8170,N,01356.2244,E,0.16,0.00,230719,,,D*6E,27.99
$GPRMC,190733.000,A,4458.8170,N,01356.2243,E,0.32,0.00,230719,,,D*6E,27.99
$GPRMC,190734.000,A,4458.8169,N,01356.2243,E,0.28,194.45,230719,,,D*67,27.99
$GPRMC,190735.000,A,4458.8167,N,01356.2242,E,0.34,194.31,230719,,,D*67,27.99
$GPRMC,190736.000,A,4458.8166,N,01356.2241,E,0.39,196.00,230719,,,D*6B,27.99
$GPRMC,190737.000,A,4458.8165,N,01356.2241,E,0.23,197.60,230719,,,D*65,27.99
$GPRMC,190738.000,A,4458.8164,N,01356.2241,E,0.19,189.71,230719,,,D*6D,27.99
$GPRMC,190739.000,A,4458.8163,N,01356.2241,E,0.23,182.00,230719,,,D*6F,27.99
$GPRMC,190740.000,A,4458.8163,N,01356.2240,E,0.22,174.54,230719,,,D*69,27.99
$GPRMC,190741.000,A,4458.8163,N,01356.2240,E,0.15,169.94,230719,,,D*6C,27.99
$GPRMC,190742.000,A,4458.8163,N,01356.2240,E,0.12,169.94,230719,,,D*68,27.99
$GPRMC,190743.000,A,4458.8163,N,01356.2240,E,0.10,169.94,230719,,,D*6B,27.99
$GPRMC,190744.000,A,4458.8163,N,01356.2240,E,0.05,169.94,230719,,,D*68,27.99
$GPRMC,190745.000,A,4458.8163,N,01356.2239,E,0.02,169.94,230719,,,D*60,27.99
$GPRMC,190746.000,A,4458.8164,N,01356.2238,E,0.04,169.94,230719,,,D*63,27.99
$GPRMC,190747.000,A,4458.8164,N,01356.2237,E,0.06,169.94,230719,,,D*6F,27.99
$GPRMC,190748.000,A,4458.8165,N,01356.2236,E,0.09,169.94,230719,,,D*6F,27.99
$GPRMC,190749.000,A,4458.8164,N,01356.2235,E,0.13,169.94,230719,,,D*67,27.99
$GPRMC,190750.000,A,4458.8164,N,01356.2235,E,0.41,203.35,230719,,,D*6C,27.99
$GPRMC,190751.000,A,4458.8164,N,01356.2235,E,0.43,202.80,230719,,,D*60,27.99
$GPRMC,190752.000,A,4458.8163,N,01356.2235,E,0.42,202.10,230719,,,D*6C,27.99
$GPRMC,190753.000,A,4458.8163,N,01356.2236,E,0.49,202.10,230719,,,D*65,27.99
$GPRMC,190754.000,A,4458.8163,N,01356.2236,E,0.49,202.10,230719,,,D*62,27.99
$GPRMC,190755.000,A,4458.8163,N,01356.2235,E,0.49,202.10,230719,,,D*60,28.31
$GPRMC,190756.000,A,4458.8162,N,01356.2234,E,0.32,201.96,230719,,,D*62,28.31
$GPRMC,190757.000,A,4458.8161,N,01356.2233,E,0.44,201.96,230719,,,D*66,27.99
$GPRMC,190758.000,A,4458.8160,N,01356.2233,E,0.47,201.96,230719,,,D*6B,28.31
$GPRMC,190759.000,A,4458.8159,N,01356.2233,E,0.41,201.96,230719,,,D*66,27.99
$GPRMC,190800.000,A,4458.8158,N,01356.2233,E,0.26,201.96,230719,,,D*65,27.99
$GPRMC,190801.000,A,4458.8157,N,01356.2233,E,0.15,201.96,230719,,,D*6B,28.31
$GPRMC,190802.000,A,4458.8157,N,01356.2233,E,0.08,201.96,230719,,,D*64,28.31
$GPRMC,190803.000,A,4458.8157,N,01356.2233,E,0.15,184.83,230719,,,D*63,28.31
$GPRMC,190804.000,A,4458.8156,N,01356.2233,E,0.53,188.55,230719,,,D*60,28.31
$GPRMC,190805.000,A,4458.8155,N,01356.2232,E,0.56,187.78,230719,,,D*66,27.99
$GPRMC,190806.000,A,4458.8155,N,01356.2232,E,0.53,190.84,230719,,,D*65,28.31
$GPRMC,190807.000,A,4458.8154,N,01356.2231,E,0.49,190.80,230719,,,D*69,28.31
$GPRMC,190808.000,A,4458.8154,N,01356.2231,E,0.49,191.58,230719,,,D*62,28.31
$GPRMC,190809.000,A,4458.8154,N,01356.2230,E,0.41,192.48,230719,,,D*68,28.31
$GPRMC,190810.000,A,4458.8154,N,01356.2229,E,0.36,195.20,230719,,,D*61,28.31
$GPRMC,190811.000,A,4458.8154,N,01356.2229,E,0.35,195.50,230719,,,D*64,28.31
$GPRMC,190812.000,A,4458.8154,N,01356.2228,E,0.32,196.81,230719,,,D*6E,28.31
$GPRMC,190813.000,A,4458.8154,N,01356.2227,E,0.34,196.81,230719,,,D*66,28.31
$GPRMC,190814.000,A,4458.8155,N,01356.2227,E,0.33,191.40,230719,,,D*6D,27.99
$GPRMC,190815.000,A,4458.8155,N,01356.2228,E,0.31,183.60,230719,,,D*60,27.99
$GPRMC,190816.000,A,4458.8155,N,01356.2228,E,0.12,180.61,230719,,,D*60,28.31
$GPRMC,190817.000,A,4458.8154,N,01356.2228,E,0.13,178.72,230719,,,D*64,28.31
$GPRMC,190818.000,A,4458.8154,N,01356.2228,E,0.37,181.52,230719,,,D*69,28.31
$GPRMC,190819.000,A,4458.8153,N,01356.2228,E,0.39,184.42,230719,,,D*65,28.31
$GPRMC,190820.000,A,4458.8153,N,01356.2228,E,0.41,188.58,230719,,,D*67,28.31
$GPRMC,190821.000,A,4458.8153,N,01356.2227,E,0.39,189.00,230719,,,D*6A,28.31
$GPRMC,190822.000,A,4458.8152,N,01356.2227,E,0.46,195.80,230719,,,D*65,28.31
$GPRMC,190823.000,A,4458.8151,N,01356.2226,E,0.14,197.83,230719,,,D*60,28.31
$GPRMC,190824.000,A,4458.8151,N,01356.2226,E,0.11,198.99,230719,,,D*66,28.31
$GPRMC,190825.000,A,4458.8151,N,01356.2226,E,0.06,199.48,230719,,,D*6C,28.31
$GPRMC,190826.000,A,4458.8151,N,01356.2226,E,0.11,201.22,230719,,,D*67,28.31
$GPRMC,190827.000,A,4458.8150,N,01356.2225,E,0.13,201.22,230719,,,D*66,28.31
$GPRMC,190828.000,A,4458.8150,N,01356.2225,E,0.35,201.22,230719,,,D*6D,28.31
$GPRMC,190829.000,A,4458.8149,N,01356.2225,E,0.09,206.00,230719,,,D*6C,28.31
$GPRMC,190830.000,A,4458.8149,N,01356.2224,E,0.01,206.00,230719,,,D*6D,28.31
$GPRMC,190831.000,A,4458.8149,N,01356.2224,E,0.08,206.00,230719,,,D*65,28.31
$GPRMC,190832.000,A,4458.8149,N,01356.2224,E,0.09,206.00,230719,,,D*67,28.31
$GPRMC,190833.000,A,4458.8149,N,01356.2224,E,0.18,206.00,230719,,,D*66,28.31
$GPRMC,190834.000,A,4458.8148,N,01356.2224,E,0.42,204.95,230719,,,D*61,28.31
$GPRMC,190835.000,A,4458.8147,N,01356.2223,E,0.23,204.89,230719,,,D*62,28.31
$GPRMC,190836.000,A,4458.8147,N,01356.2223,E,0.11,204.69,230719,,,D*6E,28.31
$GPRMC,190837.000,A,4458.8146,N,01356.2222,E,0.13,204.69,230719,,,D*6D,28.31
$GPRMC,190838.000,A,4458.8146,N,01356.2222,E,0.12,204.69,230719,,,D*63,28.31
$GPRMC,190839.000,A,4458.8146,N,01356.2223,E,0.16,204.69,230719,,,D*67,28.31
$GPRMC,190840.000,A,4458.8147,N,01356.2223,E,0.15,204.69,230719,,,D*6B,28.31
$GPRMC,190841.000,A,4458.8147,N,01356.2223,E,0.10,204.69,230719,,,D*6F,28.31
$GPRMC,190842.000,A,4458.8147,N,01356.2223,E,0.13,204.69,230719,,,D*6F,28.31
$GPRMC,190843.000,A,4458.8147,N,01356.2223,E,0.71,204.69,230719,,,D*6A,28.31
$GPRMC,190844.000,A,4458.8148,N,01356.2223,E,0.75,24.79,230719,,,D*57,28.31
$GPRMC,190845.000,A,4458.8149,N,01356.2224,E,0.30,24.34,230719,,,D*58,28.31
$GPRMC,190846.000,A,4458.8149,N,01356.2224,E,0.01,23.87,230719,,,D*56,28.63
$GPRMC,190847.000,A,4458.8150,N,01356.2224,E,0.03,23.87,230719,,,D*5D,28.31
$GPRMC,190848.000,A,4458.8150,N,01356.2225,E,0.11,23.87,230719,,,D*50,28.31
$GPRMC,190849.000,A,4458.8150,N,01356.2224,E,0.02,23.87,230719,,,D*52,28.31
$GPRMC,190850.000,A,4458.8150,N,01356.2224,E,0.02,23.87,230719,,,D*5A,28.31
$GPRMC,190851.000,A,4458.8150,N,01356.2224,E,0.09,23.87,230719,,,D*50,28.63
$GPRMC,190852.000,A,4458.8149,N,01356.2224,E,0.16,23.87,230719,,,D*55,28.31
$GPRMC,190853.000,A,4458.8149,N,01356.2224,E,0.10,23.87,230719,,,D*52,28.31
$GPRMC,190854.000,A,4458.8149,N,01356.2224,E,0.10,23.87,230719,,,D*55,28.31
$GPRMC,190855.000,A,4458.8149,N,01356.2223,E,0.09,23.87,230719,,,D*5B,28.63
$GPRMC,190856.000,A,4458.8148,N,01356.2223,E,0.10,23.87,230719,,,D*51,28.63
$GPRMC,190857.000,A,4458.8148,N,01356.2223,E,0.04,23.87,230719,,,D*55,28.31
$GPRMC,190858.000,A,4458.8148,N,01356.2223,E,0.04,23.87,230719,,,D*5A,28.31
$GPRMC,190859.000,A,4458.8148,N,01356.2223,E,0.02,23.87,230719,,,D*5D,28.63
$GPRMC,190900.000,A,4458.8148,N,01356.2223,E,0.01,23.87,230719,,,D*53,28.63
$GPRMC,190901.000,A,4458.8148,N,01356.2223,E,0.03,23.87,230719,,,D*50,28.63
$GPRMC,190902.000,A,4458.8148,N,01356.2223,E,0.01,23.87,230719,,,D*51,28.63
$GPRMC,190903.000,A,4458.8148,N,01356.2223,E,0.00,23.87,230719,,,D*51,28.63
$GPRMC,190904.000,A,4458.8148,N,01356.2223,E,0.00,23.87,230719,,,D*56,28.63
$GPRMC,190905.000,A,4458.8148,N,01356.2223,E,0.00,23.87,230719,,,D*57,28.63
$GPRMC,190906.000,A,4458.8148,N,01356.2223,E,0.01,23.87,230719,,,D*55,28.63
$GPRMC,190907.000,A,4458.8148,N,01356.2223,E,0.00,23.87,230719,,,D*55,28.63
$GPRMC,190908.000,A,4458.8148,N,01356.2223,E,0.01,23.87,230719,,,D*5B,28.31
$GPRMC,190909.000,A,4458.8148,N,01356.2223,E,0.02,23.87,230719,,,D*59,28.63
$GPRMC,190910.000,A,4458.8148,N,01356.2223,E,0.01,23.87,230719,,,D*52,28.63
$GPRMC,190911.000,A,4458.8148,N,01356.2223,E,0.01,23.87,230719,,,D*53,28.63
$GPRMC,190912.000,A,4458.8148,N,01356.2223,E,0.01,23.87,230719,,,D*50,28.63
$GPRMC,190913.000,A,4458.8148,N,01356.2223,E,0.01,23.87,230719,,,D*51,28.63
$GPRMC,190914.000,A,4458.8148,N,01356.2223,E,0.00,23.87,230719,,,D*57,28.63
$GPRMC,190915.000,A,4458.8148,N,01356.2223,E,0.01,23.87,230719,,,D*57,28.63
$GPRMC,190916.000,A,4458.8148,N,01356.2223,E,0.02,23.87,230719,,,D*57,28.63
$GPRMC,190917.000,A,4458.8148,N,01356.2223,E,0.00,23.87,230719,,,D*54,28.63
$GPRMC,190918.000,A,4458.8148,N,01356.2223,E,0.01,23.87,230719,,,D*5A,28.63
$GPRMC,190919.000,A,4458.8148,N,01356.2223,E,0.03,23.87,230719,,,D*59,28.63
$GPRMC,190920.000,A,4458.8148,N,01356.2223,E,0.00,23.87,230719,,,D*50,28.63
$GPRMC,190921.000,A,4458.8148,N,01356.2223,E,0.07,23.87,230719,,,D*56,28.63
$GPRMC,190922.000,A,4458.8148,N,01356.2223,E,0.02,23.87,230719,,,D*50,28.63
$GPRMC,190923.000,A,4458.8148,N,01356.2223,E,0.03,23.87,230719,,,D*50,28.63
$GPRMC,190924.000,A,4458.8148,N,01356.2223,E,0.01,23.87,230719,,,D*55,28.63
$GPRMC,190925.000,A,4458.8148,N,01356.2223,E,0.01,23.87,230719,,,D*54,28.63
$GPRMC,190926.000,A,4458.8148,N,01356.2223,E,0.01,23.87,230719,,,D*57,28.63
$GPRMC,190927.000,A,4458.8148,N,01356.2223,E,0.02,23.87,230719,,,D*55,28.63
$GPRMC,190928.000,A,4458.8148,N,01356.2223,E,0.01,23.87,230719,,,D*59,28.63
$GPRMC,190929.000,A,4458.8148,N,01356.2223,E,0.01,23.87,230719,,,D*58,28.63
$GPRMC,190930.000,A,4458.8148,N,01356.2223,E,0.01,23.87,230719,,,D*50,28.63
$GPRMC,190931.000,A,4458.8148,N,01356.2223,E,0.04,23.87,230719,,,D*54,28.63
$GPRMC,190932.000,A,4458.8148,N,01356.2223,E,0.01,23.87,230719,,,D*52,28.63
$GPRMC,190933.000,A,4458.8148,N,01356.2223,E,0.01,23.87,230719,,,D*53,28.63
$GPRMC,190934.000,A,4458.8148,N,01356.2223,E,0.02,23.87,230719,,,D*57,28.63
$GPRMC,190935.000,A,4458.8148,N,01356.2223,E,0.01,23.87,230719,,,D*55,28.63
$GPRMC,190936.000,A,4458.8148,N,01356.2223,E,0.00,23.87,230719,,,D*57,28.63
$GPRMC,190937.000,A,4458.8148,N,01356.2223,E,0.02,23.87,230719,,,D*54,28.63
$GPRMC,190938.000,A,4458.8148,N,01356.2223,E,0.01,23.87,230719,,,D*58,28.63
$GPRMC,190939.000,A,4458.8148,N,01356.2223,E,0.01,23.87,230719,,,D*59,28.63
$GPRMC,190940.000,A,4458.8148,N,01356.2223,E,0.01,23.87,230719,,,D*57,28.63
$GPRMC,190941.000,A,4458.8148,N,01356.2223,E,0.00,23.87,230719,,,D*57,28.63
$GPRMC,190942.000,A,4458.8148,N,01356.2223,E,0.00,23.87,230719,,,D*54,28.63
$GPRMC,190943.000,A,4458.8148,N,01356.2223,E,0.00,23.87,230719,,,D*55,28.63
$GPRMC,190944.000,A,4458.8148,N,01356.2223,E,0.00,23.87,230719,,,D*52,28.63
$GPRMC,190945.000,A,4458.8148,N,01356.2223,E,0.01,23.87,230719,,,D*52,28.63
$GPRMC,190946.000,A,4458.8148,N,01356.2223,E,0.01,23.87,230719,,,D*51,28.63
$GPRMC,190947.000,A,4458.8148,N,01356.2223,E,0.01,23.87,230719,,,D*50,28.63
$GPRMC,190948.000,A,4458.8148,N,01356.2223,E,0.02,23.87,230719,,,D*5C,28.63
$GPRMC,190949.000,A,4458.8148,N,01356.2223,E,0.01,23.87,230719,,,D*5E,28.63
$GPRMC,190950.000,A,4458.8148,N,01356.2223,E,0.01,23.87,230719,,,D*56,28.63
$GPRMC,190951.000,A,4458.8148,N,01356.2223,E,0.01,23.87,230719,,,D*57,28.63
$GPRMC,190952.000,A,4458.8148,N,01356.2223,E,0.02,23.87,230719,,,D*57,28.63
$GPRMC,190953.000,A,4458.8148,N,01356.2223,E,0.02,23.87,230719,,,D*56,28.63
$GPRMC,190954.000,A,4458.8148,N,01356.2223,E,0.02,23.87,230719,,,D*51,28.63
$GPRMC,190955.000,A,4458.8148,N,01356.2223,E,0.02,23.87,230719,,,D*50,28.63
$GPRMC,190956.000,A,4458.8148,N,01356.2223,E,0.01,23.87,230719,,,D*50,28.63
$GPRMC,190957.000,A,4458.8148,N,01356.2223,E,0.00,23.87,230719,,,D*50,28.63
$GPRMC,190958.000,A,4458.8148,N,01356.2223,E,0.01,23.87,230719,,,D*5E,28.63
$GPRMC,190959.000,A,4458.8148,N,01356.2223,E,0.00,23.87,230719,,,D*5E,28.63
$GPRMC,191000.000,A,4458.8148,N,01356.2223,E,0.00,23.87,230719,,,D*5A,28.63
$GPRMC,191001.000,A,4458.8148,N,01356.2223,E,0.01,23.87,230719,,,D*5A,28.63
$GPRMC,191002.000,A,4458.8148,N,01356.2223,E,0.01,23.87,230719,,,D*59,28.96
$GPRMC,191003.000,A,4458.8148,N,01356.2223,E,0.01,23.87,230719,,,D*58,28.96
$GPRMC,191004.000,A,4458.8148,N,01356.2223,E,0.01,23.87,230719,,,D*5F,28.96
$GPRMC,191005.000,A,4458.8148,N,01356.2223,E,0.02,23.87,230719,,,D*5D,28.96
$GPRMC,191006.000,A,4458.8148,N,01356.2223,E,0.01,23.87,230719,,,D*5D,28.63
$GPRMC,191007.000,A,4458.8148,N,01356.2223,E,0.04,23.87,230719,,,D*59,28.96
$GPRMC,191008.000,A,4458.8148,N,01356.2223,E,0.00,23.87,230719,,,D*52,28.96
$GPRMC,191009.000,A,4458.8148,N,01356.2223,E,0.01,23.87,230719,,,D*52,28.63
$GPRMC,191010.000,A,4458.8148,N,01356.2223,E,0.02,23.87,230719,,,D*59,28.96
$GPRMC,191011.000,A,4458.8148,N,01356.2223,E,0.00,23.87,230719,,,D*5A,28.96
$GPRMC,191012.000,A,4458.8148,N,01356.2223,E,0.01,23.87,230719,,,D*58,28.96
$GPRMC,191013.000,A,4458.8148,N,01356.2223,E,0.03,23.87,230719,,,D*5B,28.63
$GPRMC,191014.000,A,4458.8148,N,01356.2223,E,0.01,23.87,230719,,,D*5E,28.63
$GPRMC,191015.000,A,4458.8148,N,01356.2223,E,0.01,23.87,230719,,,D*5F,28.63
$GPRMC,191016.000,A,4458.8148,N,01356.2223,E,0.01,23.87,230719,,,D*5C,28.63
$GPRMC,191017.000,A,4458.8148,N,01356.2223,E,0.02,23.87,230719,,,D*5E,28.63
$GPRMC,191018.000,A,4458.8148,N,01356.2223,E,0.00,23.87,230719,,,D*53,28.63
$GPRMC,191019.000,A,4458.8148,N,01356.2223,E,0.01,23.87,230719,,,D*53,28.63
$GPRMC,191020.000,A,4458.8148,N,01356.2223,E,0.02,23.87,230719,,,D*5A,28.63
$GPRMC,191021.000,A,4458.8148,N,01356.2223,E,0.02,23.87,230719,,,D*5B,28.63
$GPRMC,191022.000,A,4458.8148,N,01356.2223,E,0.02,23.87,230719,,,D*58,28.63
$GPRMC,191023.000,A,4458.8148,N,01356.2223,E,0.01,23.87,230719,,,D*5A,28.63
$GPRMC,191024.000,A,4458.8148,N,01356.2223,E,0.00,23.87,230719,,,D*5C,28.63
$GPRMC,191025.000,A,4458.8148,N,01356.2223,E,0.02,23.87,230719,,,D*5F,28.63
$GPRMC,191026.000,A,4458.8148,N,01356.2223,E,0.02,23.87,230719,,,D*5C,28.63
$GPRMC,191027.000,A,4458.8148,N,01356.2223,E,0.00,23.87,230719,,,D*5F,28.63
$GPRMC,191028.000,A,4458.8148,N,01356.2223,E,0.01,23.87,230719,,,D*51,28.63
$GPRMC,191029.000,A,4458.8148,N,01356.2223,E,0.02,23.87,230719,,,D*53,28.63
$GPRMC,191030.000,A,4458.8148,N,01356.2223,E,0.02,23.87,230719,,,D*5B,28.63
$GPRMC,191031.000,A,4458.8149,N,01356.2223,E,0.03,23.87,230719,,,D*5A,28.63
$GPRMC,191032.000,A,4458.8150,N,01356.2224,E,0.02,23.87,230719,,,D*57,28.63
$GPRMC,191033.000,A,4458.8150,N,01356.2224,E,0.02,23.87,230719,,,D*56,28.63
$GPRMC,191034.000,A,4458.8150,N,01356.2224,E,0.02,23.87,230719,,,D*51,28.63
$GPRMC,191035.000,A,4458.8150,N,01356.2224,E,0.02,23.87,230719,,,D*50,28.63
$GPRMC,191036.000,A,4458.8150,N,01356.2224,E,0.01,23.87,230719,,,D*50,28.63
$GPRMC,191037.000,A,4458.8150,N,01356.2224,E,0.01,23.87,230719,,,D*51,28.63
$GPRMC,191038.000,A,4458.8151,N,01356.2224,E,0.01,23.87,230719,,,D*5F,28.63
$GPRMC,191039.000,A,4458.8151,N,01356.2224,E,0.01,23.87,230719,,,D*5E,28.63
$GPRMC,191040.000,A,4458.8151,N,01356.2224,E,0.01,23.87,230719,,,D*50,28.63
$GPRMC,191041.000,A,4458.8151,N,01356.2224,E,0.01,23.87,230719,,,D*51,28.63
$GPRMC,191042.000,A,4458.8151,N,01356.2224,E,0.01,23.87,230719,,,D*52,28.63
$GPRMC,191043.000,A,4458.8151,N,01356.2224,E,0.01,23.87,230719,,,D*53,28.63
$GPRMC,191044.000,A,4458.8152,N,01356.2224,E,0.01,23.87,230719,,,D*57,28.63
$GPRMC,191045.000,A,4458.8151,N,01356.2225,E,0.01,23.87,230719,,,D*54,28.63
$GPRMC,191046.000,A,4458.8152,N,01356.2225,E,0.01,23.87,230719,,,D*54,28.63
$GPRMC,191047.000,A,4458.8152,N,01356.2225,E,0.01,23.87,230719,,,D*55,28.63
$GPRMC,191048.000,A,4458.8152,N,01356.2225,E,0.01,23.87,230719,,,D*5A,28.63
$GPRMC,191049.000,A,4458.8152,N,01356.2225,E,0.00,23.87,230719,,,D*5A,28.63
$GPRMC,191050.000,A,4458.8152,N,01356.2225,E,0.01,23.87,230719,,,D*53,28.63
$GPRMC,191051.000,A,4458.8152,N,01356.2225,E,0.02,23.87,230719,,,D*51,28.96
$GPRMC,191052.000,A,4458.8152,N,01356.2225,E,0.02,23.87,230719,,,D*52,28.63
$GPRMC,191053.000,A,4458.8152,N,01356.2225,E,0.02,23.87,230719,,,D*53,28.63
$GPRMC,191054.000,A,4458.8152,N,01356.2225,E,0.01,23.87,230719,,,D*57,28.63
$GPRMC,191055.000,A,4458.8152,N,01356.2225,E,0.01,23.87,230719,,,D*56,28.96
$GPRMC,191056.000,A,4458.8152,N,01356.2225,E,0.02,23.87,230719,,,D*56,28.63
$GPRMC,191057.000,A,4458.8152,N,01356.2225,E,0.01,23.87,230719,,,D*54,28.96
$GPRMC,191058.000,A,4458.8152,N,01356.2225,E,0.02,23.87,230719,,,D*58,28.96
$GPRMC,191059.000,A,4458.8152,N,01356.2225,E,0.01,23.87,230719,,,D*5A,28.96
$GPRMC,191100.000,A,4458.8152,N,01356.2225,E,0.01,23.87,230719,,,D*57,28.96
$GPRMC,191101.000,A,4458.8152,N,01356.2225,E,0.02,23.87,230719,,,D*55,28.96
$GPRMC,191102.000,A,4458.8152,N,01356.2225,E,0.00,23.87,230719,,,D*54,28.96
$GPRMC,191103.000,A,4458.8152,N,01356.2225,E,0.01,23.87,230719,,,D*54,28.96
$GPRMC,191104.000,A,4458.8152,N,01356.2225,E,0.01,23.87,230719,,,D*53,28.96
$GPRMC,191105.000,A,4458.8152,N,01356.2225,E,0.00,23.87,230719,,,D*53,28.96
$GPRMC,191106.000,A,4458.8152,N,01356.2225,E,0.01,23.87,230719,,,D*51,28.96
$GPRMC,191107.000,A,4458.8152,N,01356.2225,E,0.01,23.87,230719,,,D*50,28.96
$GPRMC,191108.000,A,4458.8152,N,01356.2225,E,0.01,23.87,230719,,,D*5F,28.96
$GPRMC,191109.000,A,4458.8152,N,01356.2225,E,0.01,23.87,230719,,,D*5E,28.96
$GPRMC,191110.000,A,4458.8152,N,01356.2225,E,0.01,23.87,230719,,,D*56,28.96
$GPRMC,191111.000,A,4458.8152,N,01356.2225,E,0.02,23.87,230719,,,D*54,28.96
$GPRMC,191112.000,A,4458.8152,N,01356.2225,E,0.01,23.87,230719,,,D*54,28.96
$GPRMC,191113.000,A,4458.8152,N,01356.2225,E,0.03,23.87,230719,,,D*57,28.96
$GPRMC,191114.000,A,4458.8152,N,01356.2225,E,0.02,23.87,230719,,,D*51,28.96
$GPRMC,191115.000,A,4458.8152,N,01356.2225,E,0.01,23.87,230719,,,D*53,28.96
$GPRMC,191116.000,A,4458.8152,N,01356.2225,E,0.01,23.87,230719,,,D*50,28.96
$GPRMC,191117.000,A,4458.8152,N,01356.2225,E,0.02,23.87,230719,,,D*52,28.96
$GPRMC,191118.000,A,4458.8152,N,01356.2225,E,0.01,23.87,230719,,,D*5E,28.96
$GPRMC,191119.000,A,4458.8152,N,01356.2225,E,0.04,23.87,230719,,,D*5A,28.63
$GPRMC,191120.000,A,4458.8152,N,01356.2225,E,0.04,23.87,230719,,,D*50,28.63
$GPRMC,191121.000,A,4458.8152,N,01356.2225,E,0.05,23.87,230719,,,D*50,28.63
$GPRMC,191122.000,A,4458.8152,N,01356.2225,E,0.05,23.87,230719,,,D*53,28.63
$GPRMC,191123.000,A,4458.8152,N,01356.2225,E,0.03,23.87,230719,,,D*54,28.63
$GPRMC,191124.000,A,4458.8152,N,01356.2225,E,0.02,23.87,230719,,,D*52,28.63
$GPRMC,191125.000,A,4458.8152,N,01356.2225,E,0.01,23.87,230719,,,D*50,28.63
$GPRMC,191126.000,A,4458.8152,N,01356.2225,E,0.00,23.87,230719,,,D*52,28.63
$GPRMC,191127.000,A,4458.8152,N,01356.2225,E,0.02,23.87,230719,,,D*51,28.63
$GPRMC,191128.000,A,4458.8152,N,01356.2225,E,0.01,23.87,230719,,,D*5D,28.63
$GPRMC,191129.000,A,4458.8152,N,01356.2225,E,0.02,23.87,230719,,,D*5F,28.63
$GPRMC,191130.000,A,4458.8152,N,01356.2225,E,0.01,23.87,230719,,,D*54,28.63
$GPRMC,191131.000,A,4458.8152,N,01356.2225,E,0.01,23.87,230719,,,D*55,28.63
$GPRMC,191132.000,A,4458.8152,N,01356.2225,E,0.01,23.87,230719,,,D*56,28.63
$GPRMC,191133.000,A,4458.8152,N,01356.2225,E,0.02,23.87,230719,,,D*54,28.63
$GPRMC,191134.000,A,4458.8152,N,01356.2225,E,0.03,23.87,230719,,,D*52,28.63
$GPRMC,191135.000,A,4458.8152,N,01356.2225,E,0.02,23.87,230719,,,D*52,28.63
$GPRMC,191136.000,A,4458.8152,N,01356.2225,E,0.02,23.87,230719,,,D*51,28.63
$GPRMC,191137.000,A,4458.8152,N,01356.2225,E,0.02,23.87,230719,,,D*50,28.63
$GPRMC,191138.000,A,4458.8152,N,01356.2225,E,0.01,23.87,230719,,,D*5C,28.63
$GPRMC,191139.000,A,4458.8152,N,01356.2225,E,0.02,23.87,230719,,,D*5E,28.63
$GPRMC,191140.000,A,4458.8152,N,01356.2225,E,0.01,23.87,230719,,,D*53,28.63
$GPRMC,191141.000,A,4458.8152,N,01356.2225,E,0.03,23.87,230719,,,D*50,28.63
$GPRMC,191142.000,A,4458.8152,N,01356.2225,E,0.01,23.87,230719,,,D*51,28.63
$GPRMC,191143.000,A,4458.8152,N,01356.2225,E,0.01,23.87,230719,,,D*50,28.63
$GPRMC,191144.000,A,4458.8152,N,01356.2225,E,0.01,23.87,230719,,,D*57,28.63
$GPRMC,191145.000,A,4458.8152,N,01356.2225,E,0.03,23.87,230719,,,D*54,28.63
$GPRMC,191146.000,A,4458.8152,N,01356.2225,E,0.02,23.87,230719,,,D*56,28.63
$GPRMC,191147.000,A,4458.8152,N,01356.2225,E,0.05,23.87,230719,,,D*50,28.63
$GPRMC,191148.000,A,4458.8152,N,01356.2225,E,0.03,23.87,230719,,,D*59,28.63
$GPRMC,191149.000,A,4458.8152,N,01356.2225,E,0.02,23.87,230719,,,D*59,28.63
$GPRMC,191150.000,A,4458.8152,N,01356.2225,E,0.01,23.87,230719,,,D*52,28.63
$GPRMC,191151.000,A,4458.8152,N,01356.2225,E,0.01,23.87,230719,,,D*53,28.63
$GPRMC,191152.000,A,4458.8152,N,01356.2225,E,0.02,23.87,230719,,,D*53,28.63
$GPRMC,191153.000,A,4458.8152,N,01356.2225,E,0.01,23.87,230719,,,D*51,28.63
$GPRMC,191154.000,A,4458.8152,N,01356.2225,E,0.01,23.87,230719,,,D*56,28.63
$GPRMC,191155.000,A,4458.8152,N,01356.2225,E,0.01,23.87,230719,,,D*57,28.63
$GPRMC,191156.000,A,4458.8152,N,01356.2225,E,0.01,23.87,230719,,,D*54,28.63
$GPRMC,191157.000,A,4458.8152,N,01356.2225,E,0.02,23.87,230719,,,D*56,28.63
$GPRMC,191158.000,A,4458.8152,N,01356.2225,E,0.01,23.87,230719,,,D*5A,28.63
$GPRMC,191159.000,A,4458.8152,N,01356.2225,E,0.01,23.87,230719,,,D*5B,28.96
$GPRMC,191200.000,A,4458.8152,N,01356.2225,E,0.03,23.87,230719,,,D*56,28.63
$GPRMC,191201.000,A,4458.8152,N,01356.2225,E,0.01,23.87,230719,,,D*55,28.96
$GPRMC,191202.000,A,4458.8152,N,01356.2225,E,0.00,23.87,230719,,,D*57,28.96
$GPRMC,191203.000,A,4458.8152,N,01356.2225,E,0.01,23.87,230719,,,D*57,28.96
$GPRMC,191204.000,A,4458.8152,N,01356.2225,E,0.04,23.87,230719,,,D*55,28.63
$GPRMC,191205.000,A,4458.8152,N,01356.2225,E,0.01,23.87,230719,,,D*51,28.96
$GPRMC,191206.000,A,4458.8152,N,01356.2225,E,0.01,23.87,230719,,,D*52,28.63
$GPRMC,191207.000,A,4458.8152,N,01356.2225,E,0.01,23.87,230719,,,D*53,28.63
$GPRMC,191208.000,A,4458.8152,N,01356.2225,E,0.01,23.87,230719,,,D*5C,28.96
$GPRMC,191209.000,A,4458.8152,N,01356.2225,E,0.02,23.87,230719,,,D*5E,28.96
$GPRMC,191210.000,A,4458.8152,N,01356.2225,E,0.01,23.87,230719,,,D*55,28.96
$GPRMC,191211.000,A,4458.8152,N,01356.2225,E,0.02,23.87,230719,,,D*57,28.96
$GPRMC,191212.000,A,4458.8152,N,01356.2224,E,0.02,23.87,230719,,,D*55,28.96
$GPRMC,191213.000,A,4458.8152,N,01356.2224,E,0.02,23.87,230719,,,D*54,28.96
$GPRMC,191214.000,A,4458.8152,N,01356.2224,E,0.01,23.87,230719,,,D*50,28.96
$GPRMC,191215.000,A,4458.8152,N,01356.2224,E,0.02,23.87,230719,,,D*52,28.96
$GPRMC,191216.000,A,4458.8152,N,01356.2224,E,0.01,23.87,230719,,,D*52,28.96
$GPRMC,191217.000,A,4458.8152,N,01356.2224,E,0.01,23.87,230719,,,D*53,28.96
$GPRMC,191218.000,A,4458.8152,N,01356.2224,E,0.02,23.87,230719,,,D*5F,28.96
$GPRMC,191219.000,A,4458.8152,N,01356.2224,E,0.04,23.87,230719,,,D*58,28.96
$GPRMC,191220.000,A,4458.8152,N,01356.2224,E,0.02,23.87,230719,,,D*54,28.96
$GPRMC,191221.000,A,4458.8152,N,01356.2224,E,0.02,23.87,230719,,,D*55,28.96
$GPRMC,191222.000,A,4458.8152,N,01356.2224,E,0.01,23.87,230719,,,D*55,28.96
$GPRMC,191223.000,A,4458.8152,N,01356.2224,E,0.02,23.87,230719,,,D*57,28.96
$GPRMC,191224.000,A,4458.8152,N,01356.2224,E,0.01,23.87,230719,,,D*53,28.96
$GPRMC,191225.000,A,4458.8152,N,01356.2224,E,0.01,23.87,230719,,,D*52,28.96
$GPRMC,191226.000,A,4458.8152,N,01356.2224,E,0.03,23.87,230719,,,D*53,28.96
$GPRMC,191227.000,A,4458.8152,N,01356.2224,E,0.01,23.87,230719,,,D*50,28.96
$GPRMC,191228.000,A,4458.8152,N,01356.2224,E,0.02,23.87,230719,,,D*5C,28.96
$GPRMC,191229.000,A,4458.8152,N,01356.2224,E,0.02,23.87,230719,,,D*5D,28.96
$GPRMC,191230.000,A,4458.8151,N,01356.2223,E,0.03,23.87,230719,,,D*50,28.96
$GPRMC,191231.000,A,4458.8151,N,01356.2222,E,0.03,23.87,230719,,,D*50,28.96
$GPRMC,191232.000,A,4458.8151,N,01356.2222,E,0.02,23.87,230719,,,D*52,28.96
$GPRMC,191233.000,A,4458.8150,N,01356.2220,E,0.02,23.87,230719,,,D*50,28.96
$GPRMC,191234.000,A,4458.8150,N,01356.2220,E,0.02,23.87,230719,,,D*57,28.96
$GPRMC,191235.000,A,4458.8150,N,01356.2220,E,0.01,23.87,230719,,,D*55,28.96
$GPRMC,191236.000,A,4458.8150,N,01356.2220,E,0.02,23.87,230719,,,D*55,28.96
$GPRMC,191237.000,A,4458.8150,N,01356.2220,E,0.02,23.87,230719,,,D*54,28.96
$GPRMC,191238.000,A,4458.8150,N,01356.2220,E,0.02,23.87,230719,,,D*5B,28.96
$GPRMC,191239.000,A,4458.8150,N,01356.2220,E,0.01,23.87,230719,,,D*59,28.96
$GPRMC,191240.000,A,4458.8150,N,01356.2220,E,0.02,23.87,230719,,,D*54,28.96
$GPRMC,191241.000,A,4458.8150,N,01356.2220,E,0.01,23.87,230719,,,D*56,28.96
$GPRMC,191242.000,A,4458.8150,N,01356.2220,E,0.01,23.87,230719,,,D*55,28.96
$GPRMC,191243.000,A,4458.8150,N,01356.2220,E,0.01,23.87,230719,,,D*54,28.96
$GPRMC,191244.000,A,4458.8150,N,01356.2220,E,0.02,23.87,230719,,,D*50,28.96
$GPRMC,191245.000,A,4458.8150,N,01356.2220,E,0.02,23.87,230719,,,D*51,28.96
$GPRMC,191246.000,A,4458.8150,N,01356.2220,E,0.01,23.87,230719,,,D*51,28.96
$GPRMC,191247.000,A,4458.8150,N,01356.2220,E,0.01,23.87,230719,,,D*50,28.96
$GPRMC,191248.000,A,4458.8150,N,01356.2220,E,0.01,23.87,230719,,,D*5F,28.96
$GPRMC,191249.000,A,4458.8150,N,01356.2220,E,0.01,23.87,230719,,,D*5E,28.96
$GPRMC,191250.000,A,4458.8150,N,01356.2220,E,0.02,23.87,230719,,,D*55,28.96
$GPRMC,191251.000,A,4458.8150,N,01356.2220,E,0.02,23.87,230719,,,D*54,28.96
$GPRMC,191252.000,A,4458.8150,N,01356.2220,E,0.02,23.87,230719,,,D*57,28.96
$GPRMC,191253.000,A,4458.8150,N,01356.2220,E,0.02,23.87,230719,,,D*56,28.96
$GPRMC,191254.000,A,4458.8150,N,01356.2220,E,0.02,23.87,230719,,,D*51,28.96
$GPRMC,191255.000,A,4458.8150,N,01356.2220,E,0.01,23.87,230719,,,D*53,28.96
$GPRMC,191256.000,A,4458.8150,N,01356.2220,E,0.02,23.87,230719,,,D*53,28.96
$GPRMC,191257.000,A,4458.8150,N,01356.2220,E,0.01,23.87,230719,,,D*51,28.96
$GPRMC,191258.000,A,4458.8150,N,01356.2220,E,0.00,23.87,230719,,,D*5F,28.96
$GPRMC,191259.000,A,4458.8150,N,01356.2220,E,0.01,23.87,230719,,,D*5F,28.96
$GPRMC,191300.000,A,4458.8150,N,01356.2220,E,0.02,23.87,230719,,,D*51,28.96
$GPRMC,191301.000,A,4458.8150,N,01356.2220,E,0.01,23.87,230719,,,D*53,28.96
$GPRMC,191302.000,A,4458.8150,N,01356.2220,E,0.01,23.87,230719,,,D*50,28.96
$GPRMC,191303.000,A,4458.8150,N,01356.2220,E,0.01,23.87,230719,,,D*51,28.96
$GPRMC,191304.000,A,4458.8150,N,01356.2220,E,0.02,23.87,230719,,,D*55,28.96
$GPRMC,191305.000,A,4458.8150,N,01356.2220,E,0.02,23.87,230719,,,D*54,28.96
$GPRMC,191306.000,A,4458.8150,N,01356.2220,E,0.05,23.87,230719,,,D*50,28.96
$GPRMC,191307.000,A,4458.8150,N,01356.2220,E,0.02,23.87,230719,,,D*56,28.96
$GPRMC,191308.000,A,4458.8150,N,01356.2220,E,0.02,23.87,230719,,,D*59,28.96
$GPRMC,191309.000,A,4458.8150,N,01356.2220,E,0.04,23.87,230719,,,D*5E,28.96
$GPRMC,191310.000,A,4458.8150,N,01356.2220,E,0.02,23.87,230719,,,D*50,28.96
$GPRMC,191311.000,A,4458.8150,N,01356.2220,E,0.01,23.87,230719,,,D*52,28.96
$GPRMC,191312.000,A,4458.8150,N,01356.2220,E,0.02,23.87,230719,,,D*52,28.96
$GPRMC,191313.000,A,4458.8150,N,01356.2220,E,0.01,23.87,230719,,,D*50,28.96
$GPRMC,191314.000,A,4458.8150,N,01356.2220,E,0.02,23.87,230719,,,D*54,28.96
$GPRMC,191315.000,A,4458.8150,N,01356.2220,E,0.03,23.87,230719,,,D*54,28.96
$GPRMC,191316.000,A,4458.8150,N,01356.2220,E,0.02,23.87,230719,,,D*56,28.96
$GPRMC,191317.000,A,4458.8150,N,01356.2220,E,0.03,23.87,230719,,,D*56,28.96
$GPRMC,191318.000,A,4458.8150,N,01356.2220,E,0.04,23.87,230719,,,D*5E,28.63
$GPRMC,191319.000,A,4458.8150,N,01356.2220,E,0.05,23.87,230719,,,D*5E,28.96
$GPRMC,191320.000,A,4458.8150,N,01356.2220,E,0.05,23.87,230719,,,D*54,28.63
$GPRMC,191321.000,A,4458.8150,N,01356.2220,E,0.03,23.87,230719,,,D*53,28.63
$GPRMC,191322.000,A,4458.8150,N,01356.2220,E,0.02,23.87,230719,,,D*51,28.96
$GPRMC,191323.000,A,4458.8150,N,01356.2220,E,0.03,23.87,230719,,,D*51,28.96
$GPRMC,191324.000,A,4458.8150,N,01356.2220,E,0.04,23.87,230719,,,D*51,28.96
$GPRMC,191325.000,A,4458.8150,N,01356.2220,E,0.04,23.87,230719,,,D*50,28.96
$GPRMC,191326.000,A,4458.8150,N,01356.2220,E,0.04,23.87,230719,,,D*53,28.96
$GPRMC,191327.000,A,4458.8150,N,01356.2220,E,0.05,23.87,230719,,,D*53,28.96
$GPRMC,191328.000,A,4458.8150,N,01356.2220,E,0.03,23.87,230719,,,D*5A,28.96
$GPRMC,191329.000,A,4458.8151,N,01356.2219,E,0.03,23.87,230719,,,D*50,28.96
$GPRMC,191330.000,A,4458.8151,N,01356.2218,E,0.03,23.87,230719,,,D*59,28.96
$GPRMC,191331.000,A,4458.8152,N,01356.2218,E,0.03,23.87,230719,,,D*5B,28.96
$GPRMC,191332.000,A,4458.8151,N,01356.2217,E,0.02,23.87,230719,,,D*55,28.63
$GPRMC,191333.000,A,4458.8151,N,01356.2217,E,0.03,23.87,230719,,,D*55,28.63
$GPRMC,191334.000,A,4458.8152,N,01356.2216,E,0.03,23.87,230719,,,D*50,28.63
$GPRMC,191335.000,A,4458.8152,N,01356.2215,E,0.02,23.87,230719,,,D*53,28.63
$GPRMC,191336.000,A,4458.8152,N,01356.2215,E,0.04,23.87,230719,,,D*56,28.63
$GPRMC,191337.000,A,4458.8152,N,01356.2215,E,0.05,23.87,230719,,,D*56,28.63
$GPRMC,191338.000,A,4458.8152,N,01356.2215,E,0.02,23.87,230719,,,D*5E,28.63
$GPRMC,191339.000,A,4458.8152,N,01356.2215,E,0.03,23.87,230719,,,D*5E,28.63
$GPRMC,191340.000,A,4458.8152,N,01356.2215,E,0.02,23.87,230719,,,D*51,28.63
$GPRMC,191341.000,A,4458.8152,N,01356.2215,E,0.04,23.87,230719,,,D*56,28.63
$GPRMC,191342.000,A,4458.8152,N,01356.2215,E,0.06,23.87,230719,,,D*57,28.63
$GPRMC,191343.000,A,4458.8152,N,01356.2215,E,0.07,23.87,230719,,,D*57,28.63
$GPRMC,191344.000,A,4458.8152,N,01356.2215,E,0.03,23.87,230719,,,D*54,28.63
$GPRMC,191345.000,A,4458.8152,N,01356.2216,E,0.02,23.87,230719,,,D*57,28.63
$GPRMC,191346.000,A,4458.8152,N,01356.2216,E,0.02,23.87,230719,,,D*54,28.63
$GPRMC,191347.000,A,4458.8152,N,01356.2216,E,0.02,23.87,230719,,,D*55,28.63
$GPRMC,191348.000,A,4458.8152,N,01356.2216,E,0.03,23.87,230719,,,D*5B,28.63
$GPRMC,191349.000,A,4458.8152,N,01356.2216,E,0.02,23.87,230719,,,D*5B,28.63
$GPRMC,191350.000,A,4458.8152,N,01356.2216,E,0.02,23.87,230719,,,D*53,28.63
$GPRMC,191351.000,A,4458.8152,N,01356.2216,E,0.03,23.87,230719,,,D*53,28.63
$GPRMC,191352.000,A,4458.8152,N,01356.2216,E,0.03,23.87,230719,,,D*50,28.63
$GPRMC,191353.000,A,4458.8152,N,01356.2216,E,0.03,23.87,230719,,,D*51,28.63
$GPRMC,191354.000,A,4458.8152,N,01356.2216,E,0.02,23.87,230719,,,D*57,28.63
$GPRMC,191355.000,A,4458.8152,N,01356.2216,E,0.01,23.87,230719,,,D*55,28.63
$GPRMC,191356.000,A,4458.8152,N,01356.2216,E,0.01,23.87,230719,,,D*56,28.63
$GPRMC,191357.000,A,4458.8152,N,01356.2215,E,0.02,23.87,230719,,,D*57,28.63
$GPRMC,191358.000,A,4458.8152,N,01356.2215,E,0.03,23.87,230719,,,D*59,28.63
$GPRMC,191359.000,A,4458.8152,N,01356.2215,E,0.03,23.87,230719,,,D*58,28.63
$GPRMC,191400.000,A,4458.8152,N,01356.2215,E,0.03,23.87,230719,,,D*53,28.96
$GPRMC,191401.000,A,4458.8152,N,01356.2215,E,0.02,23.87,230719,,,D*53,28.63
$GPRMC,191402.000,A,4458.8152,N,01356.2215,E,0.02,23.87,230719,,,D*50,28.96
$GPRMC,191403.000,A,4458.8152,N,01356.2215,E,0.02,23.87,230719,,,D*51,28.63
$GPRMC,191404.000,A,4458.8152,N,01356.2215,E,0.02,23.87,230719,,,D*56,28.63
$GPRMC,191405.000,A,4458.8152,N,01356.2215,E,0.01,23.87,230719,,,D*54,28.96
$GPRMC,191406.000,A,4458.8152,N,01356.2215,E,0.02,23.87,230719,,,D*54,28.63
$GPRMC,191407.000,A,4458.8152,N,01356.2215,E,0.03,23.87,230719,,,D*54,28.63
$GPRMC,191408.000,A,4458.8152,N,01356.2215,E,0.03,23.87,230719,,,D*5B,28.96
$GPRMC,191409.000,A,4458.8152,N,01356.2215,E,0.01,23.87,230719,,,D*58,28.96
$GPRMC,191410.000,A,4458.8152,N,01356.2215,E,0.02,23.87,230719,,,D*53,28.96
$GPRMC,191411.000,A,4458.8152,N,01356.2215,E,0.02,23.87,230719,,,D*52,28.96
$GPRMC,191412.000,A,4458.8152,N,01356.2215,E,0.02,23.87,230719,,,D*51,28.96
$GPRMC,191413.000,A,4458.8152,N,01356.2215,E,0.01,23.87,230719,,,D*53,28.96
$GPRMC,191414.000,A,4458.8152,N,01356.2215,E,0.04,23.87,230719,,,D*51,28.96
$GPRMC,191415.000,A,4458.8152,N,01356.2215,E,0.01,23.87,230719,,,D*55,28.96
$GPRMC,191416.000,A,4458.8152,N,01356.2215,E,0.03,23.87,230719,,,D*54,28.96
$GPRMC,191417.000,A,4458.8152,N,01356.2215,E,0.02,23.87,230719,,,D*54,28.96
$GPRMC,191418.000,A,4458.8152,N,01356.2215,E,0.02,23.87,230719,,,D*5B,28.96
$GPRMC,191419.000,A,4458.8152,N,01356.2215,E,0.02,23.87,230719,,,D*5A,28.96
$GPRMC,191420.000,A,4458.8152,N,01356.2215,E,0.01,23.87,230719,,,D*53,28.96
$GPRMC,191421.000,A,4458.8152,N,01356.2215,E,0.01,23.87,230719,,,D*52,28.96
$GPRMC,191422.000,A,4458.8152,N,01356.2215,E,0.02,23.87,230719,,,D*52,28.96
$GPRMC,191423.000,A,4458.8152,N,01356.2215,E,0.04,23.87,230719,,,D*55,28.96
$GPRMC,191424.000,A,4458.8152,N,01356.2215,E,0.03,23.87,230719,,,D*55,28.96
$GPRMC,191425.000,A,4458.8152,N,01356.2215,E,0.02,23.87,230719,,,D*55,28.96
$GPRMC,191426.000,A,4458.8152,N,01356.2215,E,0.03,23.87,230719,,,D*57,28.96
$GPRMC,191427.000,A,4458.8152,N,01356.2215,E,0.05,23.87,230719,,,D*50,28.96
$GPRMC,191428.000,A,4458.8152,N,01356.2215,E,0.04,23.87,230719,,,D*5E,28.96
$GPRMC,191429.000,A,4458.8152,N,01356.2215,E,0.03,23.87,230719,,,D*58,28.96
$GPRMC,191430.000,A,4458.8152,N,01356.2215,E,0.01,23.87,230719,,,D*52,28.96
$GPRMC,191431.000,A,4458.8152,N,01356.2215,E,0.01,23.87,230719,,,D*53,28.96
$GPRMC,191432.000,A,4458.8152,N,01356.2215,E,0.00,23.87,230719,,,D*51,28.96
$GPRMC,191433.000,A,4458.8152,N,01356.2215,E,0.01,23.87,230719,,,D*51,28.96
$GPRMC,191434.000,A,4458.8152,N,01356.2215,E,0.01,23.87,230719,,,D*56,28.96
$GPRMC,191435.000,A,4458.8152,N,01356.2215,E,0.03,23.87,230719,,,D*55,28.96
$GPRMC,191436.000,A,4458.8152,N,01356.2215,E,0.03,23.87,230719,,,D*56,28.96
$GPRMC,191437.000,A,4458.8152,N,01356.2215,E,0.02,23.87,230719,,,D*56,28.96
$GPRMC,191438.000,A,4458.8152,N,01356.2215,E,0.03,23.87,230719,,,D*58,28.96
$GPRMC,191439.000,A,4458.8152,N,01356.2215,E,0.02,23.87,230719,,,D*58,28.96
$GPRMC,191440.000,A,4458.8152,N,01356.2215,E,0.02,23.87,230719,,,D*56,28.96
$GPRMC,191441.000,A,4458.8152,N,01356.2215,E,0.01,23.87,230719,,,D*54,28.96
$GPRMC,191442.000,A,4458.8152,N,01356.2215,E,0.02,23.87,230719,,,D*54,28.96
$GPRMC,191443.000,A,4458.8152,N,01356.2215,E,0.01,23.87,230719,,,D*56,28.96
$GPRMC,191444.000,A,4458.8152,N,01356.2215,E,0.01,23.87,230719,,,D*51,28.96
$GPRMC,191445.000,A,4458.8152,N,01356.2215,E,0.01,23.87,230719,,,D*50,28.96
$GPRMC,191446.000,A,4458.8152,N,01356.2215,E,0.02,23.87,230719,,,D*50,28.96
$GPRMC,191447.000,A,4458.8152,N,01356.2215,E,0.02,23.87,230719,,,D*51,28.96
$GPRMC,191448.000,A,4458.8152,N,01356.2215,E,0.02,23.87,230719,,,D*5E,28.96
$GPRMC,191449.000,A,4458.8152,N,01356.2215,E,0.01,23.87,230719,,,D*5C,28.96
$GPRMC,191450.000,A,4458.8152,N,01356.2215,E,0.01,23.87,230719,,,D*54,28.96
$GPRMC,191451.000,A,4458.8152,N,01356.2215,E,0.00,23.87,230719,,,D*54,28.96
$GPRMC,191452.000,A,4458.8152,N,01356.2215,E,0.01,23.87,230719,,,D*56,28.63
$GPRMC,191453.000,A,4458.8152,N,01356.2215,E,0.02,23.87,230719,,,D*54,28.63
$GPRMC,191454.000,A,4458.8152,N,01356.2215,E,0.03,23.87,230719,,,D*52,28.63
$GPRMC,191455.000,A,4458.8152,N,01356.2215,E,0.03,23.87,230719,,,D*53,28.63
$GPRMC,191456.000,A,4458.8152,N,01356.2215,E,0.03,23.87,230719,,,D*50,28.63
$GPRMC,191457.000,A,4458.8152,N,01356.2215,E,0.03,23.87,230719,,,D*51,28.63
$GPRMC,191458.000,A,4458.8152,N,01356.2215,E,0.02,23.87,230719,,,D*5F,28.63
$GPRMC,191459.000,A,4458.8152,N,01356.2215,E,0.00,23.87,230719,,,D*5C,28.63
$GPRMC,191500.000,A,4458.8152,N,01356.2215,E,0.02,23.87,230719,,,D*53,28.63
$GPRMC,191501.000,A,4458.8152,N,01356.2215,E,0.02,23.87,230719,,,D*52,28.96
$GPRMC,191502.000,A,4458.8152,N,01356.2215,E,0.04,23.87,230719,,,D*57,28.96
$GPRMC,191503.000,A,4458.8152,N,01356.2215,E,0.10,23.87,230719,,,D*53,28.96
$GPRMC,191504.000,A,4458.8152,N,01356.2215,E,0.17,23.87,230719,,,D*53,28.96
$GPRMC,191505.000,A,4458.8152,N,01356.2215,E,0.18,23.87,230719,,,D*5D,28.96
$GPRMC,191506.000,A,4458.8151,N,01356.2215,E,0.09,23.87,230719,,,D*5D,28.96
$GPRMC,191507.000,A,4458.8151,N,01356.2215,E,0.04,23.87,230719,,,D*51,28.96
$GPRMC,191508.000,A,4458.8151,N,01356.2215,E,0.02,23.87,230719,,,D*58,28.96
$GPRMC,191509.000,A,4458.8151,N,01356.2215,E,0.01,23.87,230719,,,D*5A,28.96
$GPRMC,191510.000,A,4458.8151,N,01356.2215,E,0.02,23.87,230719,,,D*51,28.96
$GPRMC,191511.000,A,4458.8151,N,01356.2215,E,0.01,23.87,230719,,,D*53,28.96
$GPRMC,191512.000,A,4458.8151,N,01356.2215,E,0.02,23.87,230719,,,D*53,28.96
$GPRMC,191513.000,A,4458.8151,N,01356.2215,E,0.02,23.87,230719,,,D*52,28.96
$GPRMC,191514.000,A,4458.8151,N,01356.2215,E,0.03,23.87,230719,,,D*54,28.96
$GPRMC,191515.000,A,4458.8151,N,01356.2215,E,0.03,23.87,230719,,,D*55,28.96
$GPRMC,191516.000,A,4458.8151,N,01356.2215,E,0.00,23.87,230719,,,D*55,28.96
$GPRMC,191517.000,A,4458.8151,N,01356.2215,E,0.01,23.87,230719,,,D*55,28.96
$GPRMC,191518.000,A,4458.8151,N,01356.2215,E,0.01,23.87,230719,,,D*5A,28.96
$GPRMC,191519.000,A,4458.8151,N,01356.2215,E,0.02,23.87,230719,,,D*58,28.96
$GPRMC,191520.000,A,4458.8151,N,01356.2215,E,0.02,23.87,230719,,,D*52,28.96
$GPRMC,191521.000,A,4458.8151,N,01356.2215,E,0.00,23.87,230719,,,D*51,28.96
$GPRMC,191522.000,A,4458.8151,N,01356.2215,E,0.01,23.87,230719,,,D*53,28.96
$GPRMC,191523.000,A,4458.8151,N,01356.2215,E,0.01,23.87,230719,,,D*52,28.96
$GPRMC,191524.000,A,4458.8151,N,01356.2215,E,0.02,23.87,230719,,,D*56,28.96
$GPRMC,191525.000,A,4458.8151,N,01356.2215,E,0.01,23.87,230719,,,D*54,28.96
$GPRMC,191526.000,A,4458.8151,N,01356.2215,E,0.02,23.87,230719,,,D*54,28.96
$GPRMC,191527.000,A,4458.8151,N,01356.2215,E,0.01,23.87,230719,,,D*56,28.96
$GPRMC,191528.000,A,4458.8151,N,01356.2215,E,0.01,23.87,230719,,,D*59,28.96
$GPRMC,191529.000,A,4458.8151,N,01356.2215,E,0.02,23.87,230719,,,D*5B,28.96
$GPRMC,191530.000,A,4458.8152,N,01356.2215,E,0.09,23.87,230719,,,D*5B,28.96
$GPRMC,191531.000,A,4458.8152,N,01356.2215,E,0.13,23.87,230719,,,D*51,28.96
$GPRMC,191532.000,A,4458.8152,N,01356.2215,E,0.09,23.87,230719,,,D*59,28.96
$GPRMC,191533.000,A,4458.8152,N,01356.2215,E,0.04,23.87,230719,,,D*55,28.96
$GPRMC,191534.000,A,4458.8152,N,01356.2215,E,0.01,23.87,230719,,,D*57,28.96
$GPRMC,191535.000,A,4458.8152,N,01356.2215,E,0.03,23.87,230719,,,D*54,28.96
$GPRMC,191536.000,A,4458.8152,N,01356.2215,E,0.01,23.87,230719,,,D*55,28.96
$GPRMC,191537.000,A,4458.8152,N,01356.2215,E,0.01,23.87,230719,,,D*54,28.96
$GPRMC,191538.000,A,4458.8152,N,01356.2215,E,0.01,23.87,230719,,,D*5B,28.96
$GPRMC,191539.000,A,4458.8152,N,01356.2215,E,0.00,23.87,230719,,,D*5B,28.96
$GPRMC,191540.000,A,4458.8152,N,01356.2215,E,0.01,23.87,230719,,,D*54,28.96
$GPRMC,191541.000,A,4458.8152,N,01356.2215,E,0.00,23.87,230719,,,D*54,28.96
$GPRMC,191542.000,A,4458.8152,N,01356.2215,E,0.01,23.87,230719,,,D*56,28.96
$GPRMC,191543.000,A,4458.8152,N,01356.2215,E,0.03,23.87,230719,,,D*55,28.96
$GPRMC,191544.000,A,4458.8152,N,01356.2215,E,0.03,23.87,230719,,,D*52,28.96
$GPRMC,191545.000,A,4458.8152,N,01356.2215,E,0.05,23.87,230719,,,D*55,28.96
$GPRMC,191546.000,A,4458.8152,N,01356.2215,E,0.04,23.87,230719,,,D*57,28.96
$GPRMC,191547.000,A,4458.8152,N,01356.2215,E,0.01,23.87,230719,,,D*53,28.96
$GPRMC,191548.000,A,4458.8152,N,01356.2215,E,0.02,23.87,230719,,,D*5F,28.96
$GPRMC,191549.000,A,4458.8152,N,01356.2215,E,0.02,23.87,230719,,,D*5E,28.96
$GPRMC,191550.000,A,4458.8152,N,01356.2215,E,0.03,23.87,230719,,,D*57,28.96
$GPRMC,191551.000,A,4458.8152,N,01356.2215,E,0.01,23.87,230719,,,D*54,28.96
$GPRMC,191552.000,A,4458.8152,N,01356.2215,E,0.01,23.87,230719,,,D*57,28.96
$GPRMC,191553.000,A,4458.8152,N,01356.2214,E,0.02,23.87,230719,,,D*54,28.96
$GPRMC,191554.000,A,4458.8152,N,01356.2214,E,0.01,23.87,230719,,,D*50,28.96
$GPRMC,191555.000,A,4458.8152,N,01356.2214,E,0.01,23.87,230719,,,D*51,28.96
$GPRMC,191556.000,A,4458.8152,N,01356.2214,E,0.02,23.87,230719,,,D*51,28.96
$GPRMC,191557.000,A,4458.8152,N,01356.2214,E,0.03,23.87,230719,,,D*51,28.96
$GPRMC,191558.000,A,4458.8152,N,01356.2214,E,0.03,23.87,230719,,,D*5E,28.96
$GPRMC,191559.000,A,4458.8152,N,01356.2214,E,0.02,23.87,230719,,,D*5E,28.96
$GPRMC,191600.000,A,4458.8152,N,01356.2214,E,0.02,23.87,230719,,,D*51,28.96
$GPRMC,191601.000,A,4458.8152,N,01356.2214,E,0.01,23.87,230719,,,D*53,28.96
$GPRMC,191602.000,A,4458.8152,N,01356.2214,E,0.01,23.87,230719,,,D*50,28.96
$GPRMC,191603.000,A,4458.8152,N,01356.2214,E,0.01,23.87,230719,,,D*51,28.96
$GPRMC,191604.000,A,4458.8152,N,01356.2214,E,0.02,23.87,230719,,,D*55,28.96
$GPRMC,191605.000,A,4458.8152,N,01356.2214,E,0.04,23.87,230719,,,D*52,28.96
$GPRMC,191606.000,A,4458.8152,N,01356.2214,E,0.05,23.87,230719,,,D*50,28.96
$GPRMC,191607.000,A,4458.8152,N,01356.2214,E,0.02,23.87,230719,,,D*56,28.96
$GPRMC,191608.000,A,4458.8152,N,01356.2214,E,0.02,23.87,230719,,,D*59,28.96
$GPRMC,191609.000,A,4458.8152,N,01356.2214,E,0.02,23.87,230719,,,D*58,28.96
$GPRMC,191610.000,A,4458.8152,N,01356.2214,E,0.02,23.87,230719,,,D*50,28.96
$GPRMC,191611.000,A,4458.8152,N,01356.2214,E,0.01,23.87,230719,,,D*52,28.96
$GPRMC,191612.000,A,4458.8152,N,01356.2214,E,0.02,23.87,230719,,,D*52,28.96
$GPRMC,191613.000,A,4458.8152,N,01356.2214,E,0.03,23.87,230719,,,D*52,28.96
$GPRMC,191614.000,A,4458.8152,N,01356.2214,E,0.04,23.87,230719,,,D*52,28.63
$GPRMC,191615.000,A,4458.8152,N,01356.2214,E,0.04,23.87,230719,,,D*53,28.63
$GPRMC,191616.000,A,4458.8152,N,01356.2214,E,0.09,23.87,230719,,,D*5D,28.63
$GPRMC,191617.000,A,4458.8152,N,01356.2214,E,0.06,23.87,230719,,,D*53,28.63
$GPRMC,191618.000,A,4458.8152,N,01356.2214,E,0.03,23.87,230719,,,D*59,28.63
$GPRMC,191619.000,A,4458.8152,N,01356.2214,E,0.06,23.87,230719,,,D*5D,28.63
$GPRMC,191620.000,A,4458.8152,N,01356.2214,E,0.07,23.87,230719,,,D*56,28.63
$GPRMC,191621.000,A,4458.8152,N,01356.2214,E,0.10,23.87,230719,,,D*51,28.63
$GPRMC,191622.000,A,4458.8152,N,01356.2213,E,0.12,23.87,230719,,,D*57,28.63
$GPRMC,191623.000,A,4458.8153,N,01356.2213,E,0.15,23.87,230719,,,D*50,28.63
$GPRMC,191624.000,A,4458.8153,N,01356.2213,E,0.17,23.87,230719,,,D*55,28.63
$GPRMC,191625.000,A,4458.8153,N,01356.2212,E,0.17,23.87,230719,,,D*55,28.63
$GPRMC,191626.000,A,4458.8154,N,01356.2212,E,0.17,23.87,230719,,,D*51,28.63
$GPRMC,191627.000,A,4458.8154,N,01356.2211,E,0.17,23.87,230719,,,D*53,28.63
$GPRMC,191628.000,A,4458.8155,N,01356.2211,E,0.16,23.87,230719,,,D*5C,28.63
$GPRMC,191629.000,A,4458.8155,N,01356.2211,E,0.16,23.87,230719,,,D*5D,28.63
$GPRMC,191630.000,A,4458.8155,N,01356.2210,E,0.16,23.87,230719,,,D*54,28.63
$GPRMC,191631.000,A,4458.8156,N,01356.2210,E,0.18,23.87,230719,,,D*58,28.63
$GPRMC,191632.000,A,4458.8156,N,01356.2210,E,0.20,23.87,230719,,,D*50,28.63
$GPRMC,191633.000,A,4458.8157,N,01356.2209,E,0.20,23.87,230719,,,D*58,28.63
$GPRMC,191634.000,A,4458.8157,N,01356.2209,E,0.19,23.87,230719,,,D*55,28.63
$GPRMC,191635.000,A,4458.8158,N,01356.2209,E,0.22,23.87,230719,,,D*53,28.63
$GPRMC,191636.000,A,4458.8158,N,01356.2208,E,0.23,23.87,230719,,,D*50,28.63
$GPRMC,191637.000,A,4458.8159,N,01356.2208,E,0.24,23.87,230719,,,D*57,28.63
$GPRMC,191638.000,A,4458.8159,N,01356.2208,E,0.23,23.87,230719,,,D*5F,28.63
$GPRMC,191639.000,A,4458.8160,N,01356.2208,E,0.25,23.87,230719,,,D*52,28.31
$GPRMC,191640.000,A,4458.8161,N,01356.2208,E,0.25,23.87,230719,,,D*5D,28.63
$GPRMC,191641.000,A,4458.8161,N,01356.2207,E,0.25,23.87,230719,,,D*53,28.31
$GPRMC,191642.000,A,4458.8162,N,01356.2207,E,0.24,23.87,230719,,,D*52,28.31
$GPRMC,191643.000,A,4458.8163,N,01356.2207,E,0.24,23.87,230719,,,D*52,28.31
$GPRMC,191644.000,A,4458.8163,N,01356.2206,E,0.23,23.87,230719,,,D*53,28.31
$GPRMC,191645.000,A,4458.8164,N,01356.2206,E,0.22,23.87,230719,,,D*54,28.31
$GPRMC,191646.000,A,4458.8164,N,01356.2205,E,0.23,23.87,230719,,,D*55,28.31
$GPRMC,191647.000,A,4458.8165,N,01356.2205,E,0.23,23.87,230719,,,D*55,28.31
$GPRMC,191648.000,A,4458.8165,N,01356.2204,E,0.22,23.87,230719,,,D*5A,28.31
$GPRMC,191649.000,A,4458.8166,N,01356.2204,E,0.23,326.58,230719,,,D*6D,28.63
$GPRMC,191650.000,A,4458.8166,N,01356.2203,E,0.21,324.86,230719,,,D*61,28.63
$GPRMC,191651.000,A,4458.8167,N,01356.2203,E,0.19,322.70,230719,,,D*65,28.63
$GPRMC,191652.000,A,4458.8167,N,01356.2202,E,0.19,319.79,230719,,,D*66,28.63
$GPRMC,191653.000,A,4458.8167,N,01356.2202,E,0.17,316.11,230719,,,D*68,28.63
$GPRMC,191654.000,A,4458.8168,N,01356.2201,E,0.17,313.14,230719,,,D*63,28.63
$GPRMC,191655.000,A,4458.8168,N,01356.2200,E,0.17,309.84,230719,,,D*61,28.63
$GPRMC,191656.000,A,4458.8168,N,01356.2200,E,0.18,306.21,230719,,,D*6D,28.63
$GPRMC,191657.000,A,4458.8168,N,01356.2199,E,0.18,301.56,230719,,,D*68,28.63
$GPRMC,191658.000,A,4458.8168,N,01356.2199,E,0.16,301.56,230719,,,D*69,28.63
$GPRMC,191659.000,A,4458.8168,N,01356.2198,E,0.12,301.56,230719,,,D*6D,28.63
$GPRMC,191700.000,A,4458.8169,N,01356.2197,E,0.11,301.56,230719,,,D*6D,28.63
$GPRMC,191701.000,A,4458.8169,N,01356.2197,E,0.09,301.56,230719,,,D*65,28.63
$GPRMC,191702.000,A,4458.8169,N,01356.2197,E,0.07,301.56,230719,,,D*68,28.63
$GPRMC,191703.000,A,4458.8169,N,01356.2196,E,0.07,301.56,230719,,,D*68,28.63
$GPRMC,191704.000,A,4458.8168,N,01356.2196,E,0.08,301.56,230719,,,D*61,28.63
$GPRMC,191705.000,A,4458.8168,N,01356.2196,E,0.07,301.56,230719,,,D*6F,28.63
$GPRMC,191706.000,A,4458.8168,N,01356.2196,E,0.07,301.56,230719,,,D*6C,28.63
$GPRMC,191707.000,A,4458.8168,N,01356.2195,E,0.08,301.56,230719,,,D*61,28.63
$GPRMC,191708.000,A,4458.8168,N,01356.2195,E,0.07,301.56,230719,,,D*61,28.63
$GPRMC,191709.000,A,4458.8168,N,01356.2195,E,0.08,301.56,230719,,,D*6F,28.63
$GPRMC,191710.000,A,4458.8168,N,01356.2195,E,0.08,301.56,230719,,,D*67,28.63
$GPRMC,191711.000,A,4458.8168,N,01356.2195,E,0.02,301.56,230719,,,D*6C,28.63
$GPRMC,191712.000,A,4458.8168,N,01356.2195,E,0.02,301.56,230719,,,D*6F,28.63
$GPRMC,191713.000,A,4458.8168,N,01356.2197,E,0.03,301.56,230719,,,D*6D,28.63
$GPRMC,191714.000,A,4458.8167,N,01356.2197,E,0.04,301.56,230719,,,D*62,28.63
$GPRMC,191715.000,A,4458.8167,N,01356.2197,E,0.03,301.56,230719,,,D*64,28.63
$GPRMC,191716.000,A,4458.8167,N,01356.2198,E,0.03,301.56,230719,,,D*68,28.63
$GPRMC,191717.000,A,4458.8167,N,01356.2198,E,0.01,301.56,230719,,,D*6B,28.63
$GPRMC,191718.000,A,4458.8167,N,01356.2198,E,0.00,301.56,230719,,,D*65,28.63
$GPRMC,191719.000,A,4458.8167,N,01356.2198,E,0.01,301.56,230719,,,D*65,28.63
$GPRMC,191720.000,A,4458.8167,N,01356.2198,E,0.01,301.56,230719,,,D*6F,28.63
$GPRMC,191721.000,A,4458.8167,N,01356.2198,E,0.01,301.56,230719,,,D*6E,28.63
$GPRMC,191722.000,A,4458.8167,N,01356.2198,E,0.01,301.56,230719,,,D*6D,28.63
$GPRMC,191723.000,A,4458.8167,N,01356.2198,E,0.01,301.56,230719,,,D*6C,28.63
$GPRMC,191724.000,A,4458.8167,N,01356.2198,E,0.02,301.56,230719,,,D*68,28.63
$GPRMC,191725.000,A,4458.8167,N,01356.2198,E,0.02,301.56,230719,,,D*69,28.63
$GPRMC,191726.000,A,4458.8167,N,01356.2198,E,0.03,301.56,230719,,,D*6B,28.63
$GPRMC,191727.000,A,4458.8167,N,01356.2198,E,0.01,301.56,230719,,,D*68,28.63
$GPRMC,191728.000,A,4458.8167,N,01356.2198,E,0.00,301.56,230719,,,D*66,28.63
$GPRMC,191729.000,A,4458.8167,N,01356.2198,E,0.02,301.56,230719,,,D*65,28.96
$GPRMC,191730.000,A,4458.8167,N,01356.2198,E,0.03,301.56,230719,,,D*6C,28.96
$GPRMC,191731.000,A,4458.8167,N,01356.2198,E,0.03,301.56,230719,,,D*6D,28.96
$GPRMC,191732.000,A,4458.8166,N,01356.2198,E,0.01,301.56,230719,,,D*6D,28.96
$GPRMC,191733.000,A,4458.8166,N,01356.2198,E,0.02,301.56,230719,,,D*6F,28.96
$GPRMC,191734.000,A,4458.8166,N,01356.2198,E,0.03,301.56,230719,,,D*69,28.96
$GPRMC,191735.000,A,4458.8166,N,01356.2198,E,0.01,301.56,230719,,,D*6A,28.63
$GPRMC,191736.000,A,4458.8167,N,01356.2198,E,0.04,301.56,230719,,,D*6D,28.96
$GPRMC,191737.000,A,4458.8167,N,01356.2198,E,0.02,301.56,230719,,,D*6A,28.63
$GPRMC,191738.000,A,4458.8167,N,01356.2198,E,0.02,301.56,230719,,,D*65,28.96
$GPRMC,191739.000,A,4458.8167,N,01356.2198,E,0.02,301.56,230719,,,D*64,28.96
$GPRMC,191740.000,A,4458.8167,N,01356.2198,E,0.02,301.56,230719,,,D*6A,28.96
$GPRMC,191741.000,A,4458.8167,N,01356.2198,E,0.01,301.56,230719,,,D*68,28.96
$GPRMC,191742.000,A,4458.8167,N,01356.2197,E,0.01,301.56,230719,,,D*64,28.96
$GPRMC,191743.000,A,4458.8167,N,01356.2197,E,0.01,301.56,230719,,,D*65,28.96
$GPRMC,191744.000,A,4458.8166,N,01356.2198,E,0.02,301.56,230719,,,D*6F,28.96
$GPRMC,191745.000,A,4458.8165,N,01356.2198,E,0.01,301.56,230719,,,D*6E,28.96
$GPRMC,191746.000,A,4458.8165,N,01356.2198,E,0.01,301.56,230719,,,D*6D,28.96
$GPRMC,191747.000,A,4458.8165,N,01356.2198,E,0.02,301.56,230719,,,D*6F,28.96
$GPRMC,191748.000,A,4458.8165,N,01356.2198,E,0.01,301.56,230719,,,D*63,28.96
$GPRMC,191749.000,A,4458.8165,N,01356.2198,E,0.02,301.56,230719,,,D*61,28.96
$GPRMC,191750.000,A,4458.8165,N,01356.2198,E,0.03,301.56,230719,,,D*68,28.96
$GPRMC,191751.000,A,4458.8165,N,01356.2198,E,0.02,301.56,230719,,,D*68,28.96
$GPRMC,191752.000,A,4458.8165,N,01356.2198,E,0.05,301.56,230719,,,D*6C,28.96
$GPRMC,191753.000,A,4458.8165,N,01356.2198,E,0.03,301.56,230719,,,D*6B,28.96
$GPRMC,191754.000,A,4458.8165,N,01356.2198,E,0.00,301.56,230719,,,D*6F,28.96
$GPRMC,191755.000,A,4458.8165,N,01356.2198,E,0.01,301.56,230719,,,D*6F,28.96
$GPRMC,191756.000,A,4458.8165,N,01356.2198,E,0.01,301.56,230719,,,D*6C,28.96
$GPRMC,191757.000,A,4458.8165,N,01356.2198,E,0.02,301.56,230719,,,D*6E,28.96
$GPRMC,191758.000,A,4458.8165,N,01356.2198,E,0.02,301.56,230719,,,D*61,28.96
$GPRMC,191759.000,A,4458.8165,N,01356.2198,E,0.02,301.56,230719,,,D*60,28.96
$GPRMC,191800.000,A,4458.8165,N,01356.2198,E,0.01,301.56,230719,,,D*60,28.96
$GPRMC,191801.000,A,4458.8165,N,01356.2198,E,0.01,301.56,230719,,,D*61,28.96
$GPRMC,191802.000,A,4458.8165,N,01356.2198,E,0.05,301.56,230719,,,D*66,28.96
$GPRMC,191803.000,A,4458.8165,N,01356.2198,E,0.03,301.56,230719,,,D*61,28.96
$GPRMC,191804.000,A,4458.8165,N,01356.2198,E,0.01,301.56,230719,,,D*64,28.96
$GPRMC,191805.000,A,4458.8165,N,01356.2198,E,0.01,301.56,230719,,,D*65,28.96
$GPRMC,191806.000,A,4458.8165,N,01356.2198,E,0.02,301.56,230719,,,D*65,28.96
$GPRMC,191807.000,A,4458.8165,N,01356.2198,E,0.02,301.56,230719,,,D*64,28.96
$GPRMC,191808.000,A,4458.8165,N,01356.2198,E,0.01,301.56,230719,,,D*68,28.96
$GPRMC,191809.000,A,4458.8165,N,01356.2198,E,0.01,301.56,230719,,,D*69,28.96
$GPRMC,191810.000,A,4458.8165,N,01356.2198,E,0.00,301.56,230719,,,D*60,28.96
$GPRMC,191811.000,A,4458.8165,N,01356.2198,E,0.01,301.56,230719,,,D*60,28.96
$GPRMC,191812.000,A,4458.8165,N,01356.2198,E,0.00,301.56,230719,,,D*62,28.96
$GPRMC,191813.000,A,4458.8165,N,01356.2198,E,0.02,301.56,230719,,,D*61,28.96
$GPRMC,191814.000,A,4458.8164,N,01356.2199,E,0.02,301.56,230719,,,D*66,28.96
$GPRMC,191815.000,A,4458.8164,N,01356.2201,E,0.03,301.56,230719,,,D*64,28.96
$GPRMC,191816.000,A,4458.8163,N,01356.2202,E,0.03,301.56,230719,,,D*63,28.96
$GPRMC,191817.000,A,4458.8162,N,01356.2202,E,0.03,301.56,230719,,,D*63,28.96
$GPRMC,191818.000,A,4458.8162,N,01356.2202,E,0.03,301.56,230719,,,D*6C,28.96
$GPRMC,191819.000,A,4458.8162,N,01356.2202,E,0.01,301.56,230719,,,D*6F,28.96
$GPRMC,191820.000,A,4458.8162,N,01356.2202,E,0.02,301.56,230719,,,D*66,28.96
$GPRMC,191821.000,A,4458.8162,N,01356.2202,E,0.00,301.56,230719,,,D*65,28.96
$GPRMC,191822.000,A,4458.8162,N,01356.2202,E,0.01,301.56,230719,,,D*67,28.96
$GPRMC,191823.000,A,4458.8162,N,01356.2202,E,0.04,301.56,230719,,,D*63,28.96
$GPRMC,191824.000,A,4458.8162,N,01356.2202,E,0.02,301.56,230719,,,D*62,28.96
$GPRMC,191825.000,A,4458.8162,N,01356.2202,E,0.03,301.56,230719,,,D*62,28.96
$GPRMC,191826.000,A,4458.8162,N,01356.2202,E,0.01,301.56,230719,,,D*63,28.96
$GPRMC,191827.000,A,4458.8162,N,01356.2202,E,0.00,301.56,230719,,,D*63,28.96
$GPRMC,191828.000,A,4458.8162,N,01356.2202,E,0.01,301.56,230719,,,D*6D,28.96
$GPRMC,191829.000,A,4458.8162,N,01356.2202,E,0.00,301.56,230719,,,D*6D,28.96
$GPRMC,191830.000,A,4458.8162,N,01356.2202,E,0.06,301.56,230719,,,D*63,28.96
$GPRMC,191831.000,A,4458.8162,N,01356.2202,E,0.02,301.56,230719,,,D*66,28.96
$GPRMC,191832.000,A,4458.8162,N,01356.2202,E,0.01,301.56,230719,,,D*66,28.96
$GPRMC,191833.000,A,4458.8162,N,01356.2202,E,0.01,301.56,230719,,,D*67,28.96
$GPRMC,191834.000,A,4458.8162,N,01356.2202,E,0.01,301.56,230719,,,D*60,28.96
$GPRMC,191835.000,A,4458.8162,N,01356.2202,E,0.03,301.56,230719,,,D*63,28.96
$GPRMC,191836.000,A,4458.8162,N,01356.2202,E,0.02,301.56,230719,,,D*61,28.96
$GPRMC,191837.000,A,4458.8162,N,01356.2202,E,0.02,301.56,230719,,,D*60,28.96
$GPRMC,191838.000,A,4458.8162,N,01356.2202,E,0.01,301.56,230719,,,D*6C,29.28
$GPRMC,191839.000,A,4458.8162,N,01356.2202,E,0.04,301.56,230719,,,D*68,28.96
$GPRMC,191840.000,A,4458.8162,N,01356.2202,E,0.01,301.56,230719,,,D*63,29.28
$GPRMC,191841.000,A,4458.8162,N,01356.2202,E,0.02,301.56,230719,,,D*61,28.96
$GPRMC,191842.000,A,4458.8162,N,01356.2202,E,0.00,301.56,230719,,,D*60,28.96
$GPRMC,191843.000,A,4458.8162,N,01356.2202,E,0.01,301.56,230719,,,D*60,28.96
$GPRMC,191844.000,A,4458.8162,N,01356.2202,E,0.02,301.56,230719,,,D*64,28.96
$GPRMC,191845.000,A,4458.8162,N,01356.2202,E,0.02,301.56,230719,,,D*65,29.28
$GPRMC,191846.000,A,4458.8162,N,01356.2202,E,0.01,301.56,230719,,,D*65,29.28
$GPRMC,191847.000,A,4458.8162,N,01356.2202,E,0.00,301.56,230719,,,D*65,29.28
$GPRMC,191848.000,A,4458.8161,N,01356.2202,E,0.01,301.56,230719,,,D*68,29.28
